Country,City,Lat,Lng,Cloudiness,Date,Humidity,Max Temp,Wind Speed
MY,George Town,5.4112,100.3354,40,1619480692,94,75.2,1.14
MX,Puerto Escondido,15.85,-97.0667,40,1619481476,66,87.8,4.61
US,Barrow,71.2906,-156.7887,1,1619481342,79,21.2,19.57
NZ,Bluff,-46.6,168.3333,54,1619481021,74,46.99,11.99
NZ,Mataura,-46.1927,168.8643,93,1619480990,75,46.0,11.99
AU,New Norfolk,-42.7826,147.0587,10,1619481476,76,62.01,3.62
EG,Hurghada,27.2574,33.8129,0,1619481042,33,75.2,11.5
CA,Inuvik,68.3499,-133.7218,40,1619481477,45,21.2,9.22
UY,Rocha,-34.4833,-54.3333,0,1619481053,82,52.97,5.7
US,Westport,41.1415,-73.3579,1,1619481301,18,59.0,21.85
EC,Puerto Ayora,-0.7393,-90.3518,25,1619480900,85,75.9,7.54
NO,Vardø,70.3705,31.1107,100,1619480984,79,31.86,16.49
RU,Khatanga,71.9667,102.5,100,1619481478,94,21.09,16.87
TZ,Ifakara,-8.1333,36.6833,81,1619481478,97,70.21,0.76
AU,Hobart,-42.8794,147.3294,20,1619481283,62,62.01,6.91
MV,Hithadhoo,-0.6,73.0833,12,1619481478,63,82.29,4.14
PF,Rikitea,-23.1203,-134.9692,83,1619480973,73,77.74,7.16
US,Elizabeth City,36.2946,-76.2511,1,1619481479,48,62.6,9.22
NC,Poum,-20.2333,164.0167,60,1619481082,69,76.68,21.0
SA,Umluj,25.0213,37.2685,0,1619481479,70,76.91,6.96
YE,Sayyan,15.1718,44.3244,100,1619481191,70,56.28,2.24
AU,Busselton,-33.65,115.3333,99,1619480838,73,66.87,2.1
US,Jamestown,42.097,-79.2353,40,1619481019,42,46.4,11.5
NA,Lüderitz,-26.6481,15.1594,80,1619481088,85,60.17,8.41
US,Kapaa,22.0752,-159.319,1,1619480903,65,78.8,11.5
IS,Vestmannaeyjar,63.4427,-20.2734,13,1619480907,90,44.47,9.42
PT,Camacha,33.0833,-16.3333,40,1619481481,82,62.6,11.5
GL,Qaanaaq,77.484,-69.3632,95,1619480998,70,38.52,6.87
AR,Ushuaia,-54.8,-68.3,75,1619480875,87,42.8,3.44
ES,Mahon,39.8885,4.2658,20,1619481481,88,57.2,11.5
HK,Hong Kong,22.2855,114.1577,100,1619480716,88,75.0,1.01
IN,Tura,25.5198,90.2201,89,1619480809,43,76.82,7.4
BR,Alta Floresta,-9.8756,-56.0861,0,1619481083,100,75.2,3.13
RU,Anadyr,64.75,177.4833,0,1619481126,93,30.2,4.47
CL,Punta Arenas,-53.15,-70.9167,90,1619480992,93,44.6,4.61
ZA,Bredasdorp,-34.5322,20.0403,41,1619480992,94,53.6,2.3
RU,Petropavlovsk-Kamchatskiy,53.0452,158.6483,90,1619481482,100,33.8,4.47
TO,Vaini,-21.2,-175.2,75,1619480791,88,77.0,6.91
CA,Saint-Augustin,51.226,-58.6502,100,1619481470,82,37.53,33.98
EG,Alexandria,31.2156,29.9553,0,1619481251,82,62.6,8.05
IS,Hofn,64.2539,-15.2082,21,1619480991,69,38.44,0.63
BR,Maraã,-1.8333,-65.3667,98,1619481483,98,73.6,4.38
CK,Avarua,-21.2078,-159.775,63,1619480882,74,82.4,8.05
CA,Tuktoyaktuk,69.4541,-133.0374,1,1619481006,72,10.4,16.11
ZA,Hermanus,-34.4187,19.2345,74,1619480972,85,62.01,5.41
AU,Wollongong,-34.4333,150.8833,0,1619481484,74,70.0,1.01
RU,Saskylakh,71.9167,114.0833,91,1619481080,94,7.16,4.25
ES,San Javier,37.8063,-0.8374,76,1619481484,100,61.0,4.61
NC,Bourail,-21.5667,165.4833,34,1619481484,67,74.77,14.61
CA,Pangnirtung,66.1451,-65.7125,100,1619481032,99,34.74,3.29
KE,Maralal,1.0968,36.698,100,1619481485,82,61.02,2.64
KI,Butaritari,3.0707,172.7902,88,1619480819,76,82.96,12.37
US,Makakilo City,21.3469,-158.0858,40,1619481039,57,82.4,11.5
CA,Yellowknife,62.456,-114.3525,40,1619480905,52,10.99,18.41
BA,Čelinac,44.7228,17.3278,100,1619481485,87,46.4,2.3
BR,Bonfim,3.0833,-59.95,97,1619481486,78,79.54,5.97
RU,Ust-Nera,64.5667,143.2,100,1619481486,86,25.81,3.83
CA,Beaverlodge,55.2166,-119.4361,75,1619481486,37,48.2,6.91
CI,Tabou,4.423,-7.3528,48,1619481487,85,80.26,7.29
GL,Upernavik,72.7868,-56.1549,97,1619481026,79,34.48,4.25
PF,Faanui,-16.4833,-151.75,93,1619481060,66,81.45,4.05
CA,Sioux Lookout,50.1001,-91.917,90,1619481487,75,35.6,6.91
US,Rincon,32.296,-81.2354,40,1619481212,49,71.6,10.36
BR,Rio Grande,-32.035,-52.0986,85,1619480958,89,55.99,12.28
CA,La Ronge,55.1001,-105.2842,100,1619481028,75,37.4,13.8
RU,Severo-Kuril'sk,50.6789,156.125,100,1619480836,97,31.57,20.78
GL,Tasiilaq,65.6145,-37.6368,75,1619481024,65,41.0,7.47
RE,Saint-Philippe,-21.3585,55.7679,90,1619480840,78,77.0,18.41
AU,Port Lincoln,-34.7333,135.8667,80,1619481046,65,65.01,6.96
CN,Shenzhen,22.5455,114.0683,100,1619481229,99,73.99,6.87
CN,Changji,44.0167,87.3167,0,1619481489,54,51.8,6.71
AT,Krems,48.4092,15.6142,5,1619481489,76,37.99,4.05
US,Plainview,40.7765,-73.4673,8,1619481193,29,57.0,12.24
RU,Tommot,58.9564,126.2925,100,1619481489,92,36.99,7.56
BR,Arraial do Cabo,-22.9661,-42.0278,40,1619480998,83,77.0,3.44
BW,Letlhakeng,-24.0944,25.0298,2,1619481165,23,60.49,3.87
ID,Gondanglegi,-7.7479,112.0132,24,1619481490,85,77.47,6.91
BR,Marau,-28.4492,-52.2,15,1619481490,85,51.73,2.42
FO,Vestmanna,62.1564,-7.1664,20,1619481491,81,39.2,17.27
GL,Narsaq,60.9167,-46.05,75,1619481081,87,37.4,3.44
US,Albany,42.6001,-73.9662,1,1619480987,31,48.99,11.01
PF,Atuona,-9.8,-139.0333,82,1619481491,74,79.84,14.61
FO,Klaksvík,62.2266,-6.589,100,1619480912,81,39.2,13.8
IN,Robertsganj,24.7,83.0667,48,1619481492,13,76.08,5.26
MR,Adrar,20.5022,-10.0711,23,1619481014,19,82.42,11.95
US,Indianola,41.3581,-93.5574,20,1619481492,39,84.2,14.97
BR,Riachão,-7.3619,-46.6172,76,1619481492,90,73.06,1.52
CL,Lebu,-37.6167,-73.65,3,1619480999,87,54.05,10.18
TR,Sivas Province,39.7916,37.0019,75,1619481493,100,33.8,9.22
BR,Humaitá,-7.5061,-63.0208,94,1619481493,97,73.92,2.3
GL,Nanortalik,60.1432,-45.2371,95,1619481056,97,33.58,10.09
MM,Myitkyina,25.3833,97.4,16,1619481494,38,75.51,1.99
BR,Jardim,-21.4803,-56.1381,0,1619481136,59,64.99,6.29
NU,Alofi,-19.0595,-169.9187,38,1619480846,70,86.0,13.8
US,Fallon,39.4735,-118.7774,40,1619481148,15,57.2,18.41
ZW,Hwange,-18.3693,26.5019,36,1619481494,59,67.87,3.38
SY,Abu Kamal,34.4506,40.9171,41,1619481495,33,70.0,11.88
RU,Leningradskiy,69.3833,178.4167,41,1619480892,85,30.9,4.68
NP,Jumla,29.2747,82.1838,0,1619481495,55,45.95,4.72
ZW,Chiredzi,-21.05,31.6667,4,1619481496,56,64.35,2.04
CO,Inírida,3.8653,-67.9239,98,1619481142,94,76.28,1.99
CN,Yibin,28.7667,104.6238,100,1619481496,81,65.73,1.86
GW,Catió,11.2833,-15.25,71,1619481496,68,77.95,8.01
IE,Letterkenny,54.95,-7.7333,92,1619481261,94,45.81,8.12
UY,Chui,-33.6971,-53.4616,7,1619480945,77,55.11,8.01
BR,Touros,-5.1989,-35.4608,20,1619481102,83,78.8,4.61
PT,Ribeira Grande,38.5167,-28.7,100,1619481062,84,60.67,3.38
US,Amherst,41.3978,-82.2224,1,1619481202,44,59.0,6.91
US,Saint Paul Harbor,57.79,-152.4072,90,1619481011,81,42.8,12.66
MU,Mahébourg,-20.4081,57.7,75,1619480769,94,77.0,14.97
ZA,Port Alfred,-33.5906,26.891,99,1619480884,78,67.15,11.79
RU,Dikson,73.5069,80.5464,100,1619480880,98,31.8,16.91
CL,Talcahuano,-36.7167,-73.1167,0,1619481498,82,59.0,10.36
IS,Grindavik,63.8424,-22.4338,75,1619481022,87,44.6,6.91
ZA,Cape Town,-33.9258,18.4232,75,1619480969,94,63.0,12.66
CL,Constitución,-35.3333,-72.4167,0,1619481083,69,57.97,8.81
JP,Hasaki,35.7333,140.8333,75,1619480873,50,55.4,5.75
IN,Leh,34.1667,77.5833,7,1619481498,38,31.12,3.13
SJ,Longyearbyen,78.2186,15.6401,40,1619480853,63,19.4,10.36
RU,Mogocha,53.7333,119.7667,94,1619481499,61,45.0,6.46
US,Powell,40.1578,-83.0752,1,1619481499,26,69.8,10.36
NA,Opuwo,-18.0607,13.84,9,1619481500,60,62.65,3.6
JP,Naze,28.3667,129.4833,20,1619481050,60,69.8,9.22
PT,Ponta do Sol,32.6667,-17.1,72,1619480985,81,61.0,1.99
US,Half Moon Bay,37.4636,-122.4286,40,1619481114,67,59.0,14.97
US,Chesterfield,37.3835,-77.5997,0,1619481387,59,63.0,4.21
CO,San Zenón,9.2422,-74.5004,98,1619481501,83,79.43,6.04
RU,Tiksi,71.6872,128.8694,100,1619481023,89,16.12,12.15
MM,Pakokku,21.3333,95.1,3,1619481501,62,85.05,8.63
AR,Mar del Plata,-38.0023,-57.5575,0,1619481501,82,55.4,4.25
OM,Salalah,17.0151,54.0924,40,1619481109,74,82.4,4.61
US,Nampa,43.5407,-116.5635,75,1619481302,93,48.0,6.91
GL,Qaqortoq,60.7167,-46.0333,75,1619481502,87,37.4,3.44
NZ,Kaitangata,-46.2817,169.8464,72,1619480977,78,48.0,5.99
US,Pacifica,37.6138,-122.4869,40,1619481502,67,55.99,14.97
PH,Sarangani,5.4033,125.4636,100,1619481206,71,82.29,3.6
US,Avera,33.194,-82.5271,1,1619481102,43,75.2,4.88
IS,Olafsvik,64.8945,-23.7142,0,1619481503,62,42.3,4.47
BR,Cururupu,-1.8283,-44.8683,90,1619481503,93,74.93,2.66
BR,Castro,-24.7911,-50.0119,61,1619481017,79,60.49,2.93
ML,Kayes,14.0,-11.0,87,1619481504,16,96.76,1.68
TM,Gazojak,41.1875,61.4036,0,1619480887,17,69.85,10.83
RU,Bay-Khaak,51.1667,94.5,98,1619481504,49,36.32,2.98
BR,Cabedelo,-6.9811,-34.8339,0,1619481504,94,77.0,5.75
RU,Pevek,69.7008,170.3133,100,1619480973,91,24.71,3.67
BR,Prainha,-1.8,-53.48,98,1619481505,96,74.14,2.53
US,Hilo,19.7297,-155.09,40,1619480893,61,78.8,9.22
TR,Viranşehir,37.2353,39.7631,1,1619481505,63,55.62,5.03
RU,Ust-Kuyga,70.0167,135.6,100,1619481506,94,27.46,7.05
JP,Kushima,31.4583,131.2333,75,1619481506,63,60.8,6.91
AI,The Valley,18.217,-63.0578,40,1619481068,78,80.6,9.22
AO,Saurimo,-9.6608,20.3916,99,1619481506,85,67.6,2.64
GL,Ilulissat,69.2167,-51.1,75,1619481087,46,48.2,12.66
MU,Souillac,-20.5167,57.5167,75,1619480894,94,77.0,14.97
CA,Norman Wells,65.282,-126.8329,75,1619480971,45,17.6,6.91
ML,Tessalit,20.1986,1.0114,41,1619480994,8,88.34,5.46
ZA,Port Elizabeth,-33.918,25.5701,75,1619480837,88,62.6,5.75
RU,Cherskiy,68.75,161.3,63,1619480952,81,22.75,8.52
RU,Lavrentiya,65.5833,-171.0,81,1619480852,90,32.67,2.06
CL,Lautaro,-38.5167,-72.45,0,1619481508,88,57.2,4.61
PH,Pagudpud,18.5616,120.7868,75,1619481508,69,78.8,3.44
RU,Iskateley,67.6803,53.1512,100,1619481508,98,35.67,5.44
SL,Yengema,8.7167,-11.1667,74,1619481509,97,71.37,0.6
ZA,East London,-33.0153,27.9116,97,1619481000,81,68.45,7.34
AO,Mossamedes,-15.1961,12.1522,1,1619480942,73,74.86,7.02
PG,Finschhafen,-6.6024,147.8681,65,1619481509,69,83.91,2.75
BR,Anori,-3.7728,-61.6442,100,1619481510,99,73.13,2.17
PT,Ponta Delgada,37.7333,-25.6667,75,1619481510,82,59.0,6.91
AU,Carnarvon,-24.8667,113.6333,0,1619480988,67,62.6,6.91
ML,Araouane,18.9048,-3.5265,18,1619481067,13,89.35,9.17
ID,Balikpapan,-1.2675,116.8289,69,1619481084,88,77.7,2.24
GQ,Luba,3.4568,8.5547,20,1619481511,89,78.8,4.61
US,Laguna,38.421,-121.4238,40,1619480953,29,66.99,6.91
RU,Rzhaksa,52.1338,42.0264,53,1619481511,93,38.41,10.51
US,Bud,39.447,-86.1758,1,1619481139,35,73.4,14.97
CV,Praia,14.9215,-23.5087,75,1619481511,73,71.6,12.66
US,Kenai,60.5544,-151.2583,1,1619480948,30,59.0,9.22
VE,Ciudad Bolivar,8.1222,-63.5497,94,1619481163,44,89.37,12.3
VN,Qui Nhon,13.7667,109.2333,88,1619481512,83,80.1,3.29
US,Broome,42.2506,-75.833,1,1619481040,29,44.6,13.8
CN,Nanma,36.1817,118.1583,76,1619481513,80,60.01,3.0
NA,Walvis Bay,-22.9575,14.5053,65,1619481043,94,61.0,1.14
BI,Makamba,-4.1348,29.804,92,1619481251,91,60.13,1.03
CA,Thompson,55.7435,-97.8558,20,1619481068,49,48.2,11.5
RU,Neryungri,56.6709,124.6491,100,1619481513,99,33.89,1.72
NO,Roald,62.5833,6.1333,100,1619481514,75,35.6,12.66
US,Stephenville,32.2207,-98.2023,1,1619481514,47,78.8,12.66
AO,Soyo,-6.1349,12.3689,100,1619481514,89,79.36,6.85
DE,Vechelde,52.2604,10.3649,75,1619481515,48,39.2,6.91
NG,Hadejia,12.4498,10.0444,1,1619481515,10,86.86,7.07
CN,Nanchong,30.7951,106.0847,100,1619481515,78,65.68,2.04
US,Walker,30.7335,-95.5669,1,1619481516,50,80.6,4.61
IN,Rāzām,18.4667,83.6667,9,1619481516,84,77.16,2.55
GN,Boffa,10.1667,-14.0333,100,1619481516,73,77.92,3.11
CA,Bonnyville,54.2668,-110.735,40,1619481517,39,48.2,12.66
GB,Lerwick,60.1545,-1.1494,75,1619481517,81,44.6,13.8
NG,Wamba,8.9333,8.6,93,1619481517,77,75.34,3.91
US,Kahului,20.8947,-156.47,40,1619480859,57,80.6,5.75
GN,Labé,11.3182,-12.2833,97,1619481518,42,77.05,4.47
RU,Magistral'nyy,56.1725,107.4458,42,1619481518,66,25.93,11.81
AR,General Roca,-39.0333,-67.5833,0,1619481518,82,60.8,3.71
CD,Kisangani,0.5167,25.2,45,1619481519,97,69.1,2.15
JP,Nishihara,26.1842,127.7558,75,1619481519,68,69.8,12.66
BW,Gweta,-20.1833,25.2333,1,1619481519,26,68.0,7.58
IT,Spoleto,42.7448,12.7374,71,1619481520,52,55.0,4.61
MU,Bambous Virieux,-20.3428,57.7575,75,1619480937,94,77.0,14.97
US,‘Ewa Beach,21.3156,-158.0072,40,1619481520,57,82.4,11.5
US,Bethel,41.3712,-73.414,1,1619481019,19,59.0,9.22
BR,Paragominas,-2.9667,-47.4833,80,1619481521,95,73.36,3.09
US,State College,40.7934,-77.86,1,1619481357,20,60.8,8.05
AO,Sumbe,-11.2061,13.8437,15,1619481521,85,78.78,6.17
BR,Cidreira,-30.1811,-50.2056,32,1619481170,72,63.46,9.66
MA,Tiznit Province,29.5833,-9.5,26,1619481522,86,56.86,2.39
PK,Keti Bandar,24.1447,67.4497,0,1619481522,77,79.61,9.44
RU,Berdigestyakh,62.0989,126.6992,99,1619481145,84,25.72,9.26
PG,Samarai,-10.6167,150.6667,67,1619480927,79,81.82,8.16
PW,Kloulklubed,7.0419,134.2556,75,1619481157,89,80.6,3.44
TL,Airai,-8.9266,125.4092,52,1619481181,50,66.34,1.9
AR,Comodoro Rivadavia,-45.8667,-67.5,0,1619481152,39,66.2,14.97
MG,Sambava,-14.2667,50.1667,53,1619481523,90,74.53,8.66
BR,Corrente,-3.7367,-43.3394,78,1619481523,90,74.39,3.69
RU,Lukh,57.0124,42.2584,42,1619481524,80,32.94,3.29
BF,Dori,14.0354,-0.0345,38,1619481524,26,90.55,6.26
CN,Yuxia,34.0615,108.6291,100,1619481524,93,51.8,2.24
ID,Padang,-0.9492,100.3543,20,1619481525,94,75.2,3.44
RU,Evensk,61.95,159.2333,19,1619481525,78,20.16,1.9
CZ,Strání,48.9022,17.7067,54,1619481525,65,37.0,6.04
CN,Shache,38.4167,77.2406,0,1619481181,21,56.62,3.56
MX,Guerrero Negro,27.9769,-114.0611,100,1619480946,59,63.12,17.02
US,Pacific Grove,36.6177,-121.9166,4,1619481526,75,57.0,17.52
CA,Clyde River,70.4692,-68.5914,90,1619480887,100,24.8,2.3
AR,Morón,-34.6534,-58.6198,41,1619481205,80,63.0,2.24
RU,Ola,59.5833,151.2833,10,1619481526,75,21.85,2.98
LY,Ajdabiya,30.7554,20.2263,40,1619481496,49,65.16,6.55
NO,Notodden,59.5594,9.2585,13,1619481527,69,34.0,4.14
IT,Province of Mantua,45.1667,10.7833,100,1619481527,87,53.01,5.01
KE,Lamu,-2.2717,40.902,62,1619481246,81,80.58,10.04
RU,Okhotsk,59.3833,143.3,95,1619481528,75,25.0,3.27
IN,Margherita,27.2833,95.6833,33,1619481528,35,75.49,1.86
AU,Codrington,-38.2667,141.9667,63,1619481528,70,58.73,1.52
MX,Tecomán,18.9167,-103.8833,90,1619481529,48,84.2,13.8
SO,Bandarbeyla,9.4942,50.8122,95,1619481036,72,82.6,3.85
CL,Ancud,-41.8697,-73.8203,90,1619481529,87,57.0,4.61
GT,Champerico,14.3,-91.9167,75,1619481529,74,86.0,9.22
PG,Kavieng,-2.5744,150.7967,46,1619480838,69,84.04,2.46
NL,Gemeente Wageningen,51.9667,5.6667,20,1619481341,70,42.01,10.36
RU,Bukachacha,52.9833,116.9167,97,1619481530,71,36.14,9.4
CA,Aklavik,68.2191,-135.0107,100,1619480993,45,21.2,9.22
RU,Novyy Urgal,51.0736,132.5642,100,1619481530,29,53.11,8.57
CA,Port Hardy,50.6996,-127.4199,40,1619480714,76,55.4,6.91
SA,Najrān,17.4924,44.1277,40,1619481531,78,69.8,6.91
HN,Barra Patuca,15.8,-84.2833,40,1619481531,70,79.63,12.19
BR,Dom Pedrito,-30.9828,-54.6731,0,1619481531,81,52.93,4.59
CN,Zhangye,38.9342,100.4517,87,1619481532,20,41.74,5.44
RU,Dukat,62.55,155.55,4,1619481532,69,20.62,5.26
PT,Aljezur,37.3191,-8.8033,85,1619481015,93,58.48,5.39
RU,Myaundzha,63.0494,147.1858,99,1619481533,86,15.58,4.27
NZ,Waipawa,-41.4122,175.5153,90,1619481533,71,55.0,16.11
MX,Cabo San Lucas,22.8909,-109.9124,90,1619480937,60,78.01,16.11
BR,Porto Velho,-8.7619,-63.9039,40,1619481523,78,78.8,3.44
US,Portland,45.5234,-122.6762,75,1619480982,62,59.0,5.75
TZ,Inyonga,-6.7167,32.0667,91,1619481533,97,62.98,3.33
CN,Rongcheng,30.634,117.8517,100,1619481534,97,60.42,1.72
RU,Yarovoy,52.9273,78.58,100,1619481534,74,48.34,8.32
NA,Aranos,-24.1333,19.1167,46,1619481535,29,65.34,4.61
AU,Mount Gambier,-37.8333,140.7667,90,1619481535,77,57.2,6.91
RU,Stupino,54.9008,38.0708,40,1619481482,81,37.4,11.18
RU,Arman',59.7,150.1667,19,1619481107,69,23.97,1.45
ID,Kabanjahe,3.1001,98.4908,75,1619481535,100,77.0,2.3
CN,Weihai,37.5017,122.1136,100,1619481536,91,54.54,13.51
OM,Nizwá,22.9333,57.5333,80,1619481536,27,77.27,2.51
IT,Marsala,37.7966,12.4352,0,1619481536,59,68.0,20.71
NA,Oranjemund,-28.55,16.4333,6,1619481537,87,59.22,4.65
JP,Shimoda,34.6667,138.95,75,1619481009,67,57.2,8.05
IT,Fiumicino,41.7675,12.2291,0,1619481537,63,59.0,4.61
SD,Doka,13.5167,35.7667,84,1619481538,56,78.53,8.84
RU,Usinsk,65.9939,57.5281,100,1619481103,96,35.37,6.96
NA,Khorixas,-20.3667,14.9667,4,1619481538,57,65.66,2.89
BR,Maceió,-9.6658,-35.7353,0,1619481201,94,75.2,4.61
BE,Bilzen,50.8732,5.5184,100,1619481538,65,45.0,8.05
SA,Sakakah,29.9697,40.2064,0,1619481539,23,73.4,13.8
NZ,Dunedin,-45.8742,170.5036,55,1619481433,63,46.99,18.01
BR,Rondonópolis,-16.4708,-54.6356,49,1619481539,87,70.65,1.32
RU,Provideniya,64.3833,-173.3,0,1619481018,65,39.2,3.78
GL,Maniitsoq,65.4167,-52.9,100,1619481129,98,33.21,8.95
AO,Benguela,-12.5763,13.4055,13,1619481540,80,77.67,3.98
TZ,Musoma,-1.5,33.8,75,1619481540,94,69.8,5.91
ID,Palu,-0.8917,119.8707,34,1619481541,75,82.74,2.08
IN,Rāmpura,30.25,75.2333,0,1619481541,17,80.67,3.69
ID,Bengkulu,-3.8004,102.2655,84,1619481088,86,75.94,3.83
BR,Linhares,-19.3911,-40.0722,78,1619481541,91,73.2,2.57
AU,Esperance,-33.8667,121.9,100,1619481123,30,71.6,18.41
CN,Tongren,27.7172,109.1853,100,1619481542,94,58.66,1.48
IR,Tafresh,34.692,50.013,44,1619481542,37,60.31,4.16
PH,Dingle,10.9995,122.6711,51,1619480924,69,81.41,9.31
RU,Turukhansk,65.8167,87.9833,8,1619481542,78,25.54,10.13
US,Lompoc,34.6391,-120.4579,1,1619481177,51,60.8,17.27
GB,Waterfoot,53.6929,-2.2525,97,1619481543,64,50.0,4.92
CD,Gemena,3.25,19.7667,4,1619481543,77,73.08,2.3
CL,Coyhaique,-45.5752,-72.0662,75,1619480892,87,51.8,6.91
MX,Ocampo,21.65,-101.5,92,1619481544,22,78.6,12.91
BR,São João da Barra,-21.6403,-41.0511,19,1619481544,93,73.44,9.89
US,West Sacramento,38.5805,-121.5302,40,1619481287,29,66.99,6.91
ID,Kaili,-3.4626,120.2147,66,1619481545,79,73.22,1.05
BJ,Porto-Novo,6.4965,2.6036,20,1619481040,79,84.2,10.36
MR,Nouadhibou,20.931,-17.0347,0,1619481277,88,66.2,14.97
CR,Paraíso,9.8383,-83.8656,40,1619481545,68,80.6,13.8
AU,Ballina,-28.8667,153.5667,40,1619481546,77,68.0,9.22
RU,Talnakh,69.4865,88.3972,88,1619480981,78,13.35,9.37
IT,Bronte,37.7895,14.8342,97,1619481546,71,60.01,5.23
PF,Tiarei,-17.5333,-149.3333,40,1619481546,66,87.8,6.91
BW,Mopipi,-21.1833,24.8833,0,1619481547,27,66.2,7.23
BR,Acaraú,-2.8856,-40.12,63,1619481547,81,79.2,11.16
GB,Brae,60.3964,-1.353,75,1619480999,81,44.6,13.8
CA,Prince Rupert,54.3161,-130.3201,1,1619480735,19,57.2,4.61
PE,Pisco,-13.7,-76.2167,40,1619480910,82,66.2,9.22
RU,Muravlenko,63.7898,74.523,99,1619481548,95,32.94,9.98
CA,Haines Junction,60.7522,-137.5108,44,1619480999,26,53.6,9.22
PF,Vaitape,-16.5167,-151.75,99,1619481548,68,81.07,3.76
BR,Caucaia,-3.7361,-38.6531,20,1619481549,78,82.4,6.91
UY,Departamento de Maldonado,-34.6667,-54.9167,40,1619481091,67,62.6,13.8
MU,Grand Gaube,-20.0064,57.6608,100,1619481046,82,77.0,7.0
US,Marion,39.7684,-86.1555,1,1619481549,35,75.2,14.97
KZ,Beyneu,45.3167,55.2,19,1619481550,39,71.38,8.05
CA,Baie-Comeau,49.2168,-68.1489,90,1619481550,87,44.6,6.91
IN,Kavaratti,10.5669,72.642,5,1619481019,74,83.75,8.19
NO,Elverum,60.8819,11.5623,30,1619481550,67,33.01,3.85
US,Price,39.5994,-110.8107,90,1619481500,37,53.6,20.71
MX,Soto la Marina,23.7667,-98.2167,74,1619481551,79,81.0,14.0
PT,Vila Franca do Campo,37.7167,-25.4333,75,1619481116,82,59.0,6.91
AU,Broken Hill,-31.95,141.4333,28,1619480970,58,57.2,5.75
BR,Urucará,-2.5364,-57.76,100,1619481551,98,74.19,2.62
US,Fairbanks,64.8378,-147.7164,1,1619481080,26,57.2,13.8
TH,Amnat Charoen,15.9167,104.75,100,1619481552,87,75.11,5.7
CA,Alberton,46.8168,-64.0654,100,1619481552,81,44.6,9.22
ID,Baturaja,-4.1333,104.1667,44,1619481553,92,74.59,2.26
ZA,Barkly West,-28.5354,24.5215,89,1619481553,44,59.0,8.05
DZ,Timizart,36.8,4.2667,29,1619481553,72,56.77,4.25
GF,Cayenne,4.9333,-52.3333,75,1619481003,94,78.01,2.3
MR,Atar,20.5169,-13.0499,37,1619481554,17,80.33,4.32
IR,Ahvāz,31.3203,48.6693,76,1619481554,38,78.8,4.61
NZ,Tuatapere,-46.1333,167.6833,97,1619480906,75,46.0,11.99
RU,Beringovskiy,63.05,179.3167,69,1619481188,92,33.12,4.5
US,Nome,64.5011,-165.4064,20,1619481555,61,46.4,3.44
PT,Peniche,39.3558,-9.3811,98,1619481555,93,57.0,9.75
RU,Pyatnitskoye,50.4233,37.8273,91,1619481555,85,35.69,13.8
LK,Matara,5.9485,80.5353,77,1619481556,88,77.7,3.29
CL,Coquimbo,-29.9533,-71.3436,0,1619480979,77,59.0,5.75
US,Yarmouth,41.7057,-70.2286,1,1619481556,53,50.0,5.75
MX,Santa Rosalía,27.3167,-112.2833,8,1619481557,38,74.97,5.86
BR,Guarapari,-20.6667,-40.4975,40,1619481557,89,78.8,2.3
CV,São Filipe,14.8961,-24.4956,17,1619480811,76,71.56,9.51
RU,Chara,56.9064,118.2631,100,1619481557,83,26.02,9.91
UZ,Gazalkent,41.5581,69.7708,0,1619481558,45,62.6,6.91
KE,Garissa,-0.4536,39.6401,43,1619481558,78,79.72,12.68
UA,Semenivka,52.1783,32.5818,78,1619481558,71,31.95,6.42
GB,Newport,51.5877,-2.9984,88,1619481559,83,44.01,1.5
IN,Bārmer,25.75,71.3833,0,1619481559,34,79.74,10.6
RU,Novikovo,51.1537,37.8879,99,1619481002,83,36.7,13.49
UA,Zaozyornoye,45.1582,33.2787,7,1619481559,65,43.0,8.63
CN,Erenhot,43.6475,111.9767,85,1619481560,36,38.25,20.22
CA,Torbay,47.6666,-52.7314,90,1619481041,75,42.01,21.85
ID,Ternate,0.8,127.4,15,1619481155,72,82.62,3.15
RU,Kolosovka,56.4678,73.611,5,1619481560,54,37.94,8.1
PG,Kieta,-6.2167,155.6333,83,1619481561,64,86.36,3.02
FR,Fourmies,50.0153,4.0478,65,1619481561,73,41.0,1.01
MX,Praxédis Guerrero,31.3667,-106.0167,40,1619481561,4,84.2,23.02
US,Kailua,21.4022,-157.7394,20,1619481562,57,80.6,8.05
AU,Karratha,-20.7377,116.8463,0,1619481155,27,77.95,10.45
SE,Höganäs,56.1997,12.558,1,1619481562,75,39.0,5.75
AR,San Rafael,-34.6177,-68.3301,0,1619480882,58,64.15,8.43
GF,Grand-Santi,4.25,-54.3833,100,1619481564,99,73.87,2.46
CN,Shenjiamen,29.9576,122.298,82,1619481080,87,61.77,9.31
LK,Negombo,7.2083,79.8358,20,1619481306,94,78.8,4.61
AU,Batemans Bay,-35.7167,150.1833,2,1619481564,55,64.0,1.88
RU,Kaspiysk,42.8816,47.6392,20,1619481565,82,57.2,22.37
JP,Kamiiso,41.8167,140.65,20,1619481565,61,48.2,8.05
RU,Deputatsky,69.3,139.9,100,1619481071,90,27.37,2.46
CN,Shouguang,36.88,118.7375,65,1619481565,80,60.01,3.0
US,Portage,41.1667,-81.1998,1,1619481342,30,64.4,4.61
MZ,Nampula,-15.1165,39.2666,75,1619481314,100,71.6,1.14
AO,Uíge,-7.6087,15.0613,87,1619481566,94,67.37,2.01
US,Eureka,40.8021,-124.1637,97,1619481566,66,59.0,5.99
PE,Hualmay,-11.0964,-77.6139,18,1619481567,87,66.76,9.31
ID,Payo,-3.7508,103.6372,21,1619481567,86,73.89,1.5
ID,Kawalu,-7.3817,108.2082,8,1619480995,91,73.98,0.58
SB,Honiara,-9.4333,159.95,84,1619481567,65,86.74,2.66
CA,Port-Cartier,50.0334,-66.8654,90,1619481568,87,43.0,13.8
HR,Senj,44.9894,14.9058,20,1619481568,100,50.0,9.22
LK,Wattegama,6.7989,81.4808,21,1619481568,95,73.56,2.71
BR,Ibateguara,-8.9725,-35.9394,0,1619481569,94,75.2,4.61
CL,Antofagasta,-23.65,-70.4,0,1619481569,77,62.6,6.91
GB,Peterhead,57.5058,-1.7981,90,1619481569,93,44.6,10.36
ID,Bambanglipuro,-7.95,110.2833,28,1619481570,80,77.52,3.85
JP,Katsuura,35.1333,140.3,40,1619481023,54,57.99,5.75
DE,Wehr,47.6298,7.9042,100,1619481570,91,46.99,3.71
JP,Oyama,36.3,139.8,20,1619481570,37,61.0,4.61
CN,Wu’an,31.6836,112.0044,97,1619481571,76,63.3,1.01
SB,Buala,-8.145,159.5921,95,1619481027,81,81.54,7.18
RU,Belyy Yar,53.6039,91.3903,95,1619481571,74,30.2,2.24
NZ,Ahipara,-35.1667,173.1667,36,1619481015,73,63.72,10.76
CO,Arauca,7.0847,-70.7591,96,1619481572,49,91.4,2.3
MX,Barra de Tecoanapa,16.5167,-98.75,24,1619481095,65,84.18,10.63
AU,Kununurra,-15.7667,128.7333,90,1619481572,61,82.4,5.75
CM,Ngaoundéré,7.3167,13.5833,51,1619481572,53,72.34,2.28
TO,Neiafu,-18.65,-173.9833,75,1619481573,83,82.4,13.8
KZ,Rudnyy,52.9594,63.1206,90,1619481573,100,46.4,6.71
ID,Luwuk,-0.9516,122.7875,75,1619481573,74,82.11,4.09
NZ,Okato,-39.2,173.8833,99,1619481574,59,57.99,11.01
IL,Kiryat Gat,31.61,34.7642,74,1619481555,100,63.0,7.2
RU,Chokurdakh,70.6333,147.9167,99,1619480837,84,24.64,3.94
PH,Baculin,7.4525,126.5842,100,1619481574,77,81.68,5.37
VN,Thai Binh,20.45,106.3333,75,1619481054,88,73.4,2.3
GF,Sinnamary,5.3833,-52.95,100,1619481575,88,77.58,11.83
NA,Henties Bay,-22.116,14.2845,18,1619480909,89,61.0,1.01
PH,Marawi,7.9986,124.2928,100,1619481575,81,79.0,5.01
LV,Stende,57.15,22.5333,90,1619481576,100,39.2,10.36
CA,Iqaluit,63.7506,-68.5145,90,1619480978,80,24.8,24.16
BR,Imaculada,-7.3897,-37.5092,71,1619481576,64,73.2,6.33
US,Astoria,46.1879,-123.8313,1,1619481576,67,55.99,16.11
RU,Parabel',58.6978,81.4825,81,1619481577,92,36.36,9.28
CA,Cap-aux-Meules,47.3821,-61.8597,100,1619481577,93,41.0,11.5
RU,Mezen',65.8522,44.24,100,1619481577,92,28.96,9.82
NC,Vao,-22.6667,167.4833,67,1619481038,66,73.6,19.55
ES,Arroyo de la Encomienda,41.6096,-4.7969,0,1619481578,93,51.01,4.61
RU,Srednekolymsk,67.45,153.6833,39,1619481120,74,26.56,5.73
AU,Port Augusta,-32.5,137.7667,0,1619481342,88,59.0,3.44
RU,Nikolskoye,59.7035,30.7861,75,1619480844,75,41.0,6.71
MZ,Maxixe,-23.8597,35.3472,0,1619481578,90,70.39,5.26
MY,Marabu,4.4148,114.0089,20,1619481579,94,78.8,2.3
CL,Buin,-33.7333,-70.75,0,1619481579,39,66.2,4.61
RU,Kortkeros,61.8106,51.5806,0,1619481579,93,32.0,6.71
US,Las Cruces,32.3123,-106.7783,1,1619481520,6,81.0,8.01
RU,Paran'ga,56.7039,49.4047,9,1619481580,80,33.53,5.75
GE,Ambrolauri,42.5211,43.1622,75,1619481580,100,50.0,3.44
US,Saint George,37.1041,-113.5841,20,1619481006,44,59.0,14.97
IN,Along,28.1667,94.7667,48,1619481581,61,67.59,2.51
MX,Camargo,27.6667,-105.1667,98,1619481581,9,88.2,21.7
PG,Namatanai,-3.6667,152.4333,50,1619481581,66,85.51,3.44
NZ,Christchurch,-43.5333,172.6333,20,1619481523,62,54.0,12.66
BR,Vila Velha,-20.3297,-40.2925,40,1619481037,89,78.8,2.3
US,Tucumcari,35.1717,-103.725,1,1619481582,5,87.8,31.07
US,Sitka,57.0531,-135.33,40,1619481013,58,51.8,4.61
CN,Mujiayingzi,42.1167,118.7833,50,1619481582,29,50.22,17.27
BR,Nova Viçosa,-17.8919,-39.3719,86,1619481583,80,76.86,9.48
SO,Hobyo,5.3505,48.5268,74,1619481024,76,82.72,8.1
GH,Takoradze,4.8845,-1.7554,71,1619481171,87,80.96,7.2
US,Griffith,41.5284,-87.4237,1,1619481583,33,77.0,21.85
DO,Pedernales,18.0384,-71.744,46,1619481583,77,77.88,1.3
PE,Huayucachi,-12.1333,-75.2333,87,1619481584,88,47.73,7.7
SB,Gizo Government Station,-8.103,156.8419,99,1619481019,74,83.84,8.01
FR,Chaumont,48.1167,5.1333,50,1619481313,72,39.99,8.7
SO,Kismayo,-0.3582,42.5454,30,1619481567,78,81.12,7.78
US,Green River,41.5286,-109.4662,40,1619481585,22,55.4,26.46
RU,Solnechnyy,50.7214,136.6319,87,1619481557,44,48.81,6.91
CA,Cochrane,51.1834,-114.4687,75,1619481558,21,55.4,17.27
BR,Unaí,-16.3575,-46.9061,74,1619481585,61,75.79,3.02
RU,Krasnoarmeysk,51.0239,45.6969,100,1619481585,50,46.99,4.0
JP,Enzan,35.7,138.7333,84,1619481586,49,59.0,4.97
AU,Wembley,-31.9333,115.8,0,1619481586,82,59.0,5.75
MX,Tomatlán,19.9333,-105.25,100,1619481579,35,85.53,10.09
RU,Aksarka,66.5606,67.7975,100,1619481568,99,33.62,6.31
BR,Amapá,1.0,-52.0,89,1619481027,97,72.79,2.48
MX,Ixtapa,20.7,-105.2,75,1619481018,78,81.0,11.5
RU,Zabaykal'sk,49.6333,117.3167,93,1619481576,56,35.67,29.28
BR,Almeirim,-1.5233,-52.5817,89,1619481587,91,75.96,1.92
RU,Kovernino,57.1253,43.8142,9,1619481587,92,28.67,2.89
NZ,Wairoa,-39.0333,177.3667,98,1619481588,52,66.99,8.01
RU,Yerbogachën,61.2767,108.0108,10,1619481562,69,19.99,8.01
CN,Alihe,50.5667,123.7167,14,1619481588,46,50.29,12.08
CN,Mabai,23.0128,104.4508,100,1619481588,96,61.02,3.18
US,Madison,34.7334,-86.5667,1,1619481458,44,77.0,6.91
RU,Aykhal,66.0,111.5,100,1619481589,93,10.02,13.87
PY,Fuerte Olimpo,-21.0415,-57.8738,0,1619481589,58,65.37,5.66
CN,Baiyin,36.5583,104.2081,40,1619481589,70,41.0,2.24
PT,Machico,32.7,-16.7667,20,1619481590,68,64.4,10.36
NO,Skjervøy,70.0311,20.9714,81,1619481590,65,34.83,7.74
IR,Bam,29.106,58.357,61,1619481590,20,75.36,4.23
NZ,Opunake,-39.4556,173.8583,100,1619481591,59,57.99,11.01
US,Rome,43.2128,-75.4557,1,1619481075,31,46.4,16.11
AR,Buenos Aires,-34.6132,-58.3772,0,1619481491,72,63.0,3.44
JP,Nichinan,31.6,131.3667,75,1619481591,63,59.0,6.91
AR,Río Tercero,-32.173,-64.1141,0,1619481592,79,54.0,6.42
NC,Noumea,-22.2763,166.4572,20,1619481592,65,78.01,16.11
BO,Villazón,-22.0866,-65.5942,0,1619481592,38,49.12,9.44
AO,Caconda,-13.7333,15.0667,59,1619481593,76,58.86,1.61
EG,Abnūb,27.2696,31.1511,0,1619481593,63,66.2,6.91
GA,Port-Gentil,-0.7193,8.7815,75,1619481117,83,82.4,4.61
RU,Vostok,46.4856,135.8833,40,1619481167,29,53.13,2.93
US,Morgan City,29.6994,-91.2068,1,1619481594,65,77.0,11.5
US,Grants Pass,42.439,-123.3284,20,1619481594,41,57.99,6.91
RU,Abaza,52.655,90.0928,99,1619481594,68,39.16,4.59
CA,Havre-St-Pierre,50.2334,-63.5986,90,1619481595,93,41.0,20.71
MX,Vega de Alatorre,20.0333,-96.6333,54,1619481595,76,81.86,12.86
AU,Geelong,-38.1471,144.3607,90,1619481549,100,57.0,6.91
GB,Great Yarmouth,52.6083,1.7305,64,1619481596,87,44.01,2.3
RU,Magdagachi,53.45,125.8,100,1619481596,57,46.81,11.36
BR,Iranduba,-3.2847,-60.1861,75,1619481596,94,75.2,3.44
CA,Whitehorse,60.7161,-135.0538,40,1619480991,21,59.0,12.66
JP,Itoman,26.1247,127.6694,75,1619481575,73,69.8,9.22
MN,Darhan,49.4867,105.9228,55,1619481597,45,40.26,11.95
US,North Bend,43.4065,-124.2243,40,1619481597,67,55.4,14.97
RU,Verkhotur'ye,58.8627,60.8054,89,1619481598,79,39.92,11.01
ID,Meulaboh,4.1363,96.1285,97,1619481598,88,76.91,3.09
AR,San Juan,-31.5375,-68.5364,0,1619481598,43,69.24,6.87
PR,Barceloneta,18.4505,-66.5385,80,1619481599,93,75.99,1.01
MV,Ugoofaaru,5.6667,73.0,6,1619481599,73,83.12,6.78
BR,Guiratinga,-16.3494,-53.7583,67,1619481599,90,69.1,4.12
PK,Montgomery,30.6667,73.1,0,1619481599,19,79.07,4.36
BR,Diamantino,-14.4086,-56.4461,52,1619481600,86,71.1,2.89
BR,Dois Vizinhos,-25.7336,-53.0572,4,1619481427,70,55.99,4.34
GA,Mayumba,-3.432,10.6554,41,1619481601,88,78.66,5.1
ZA,Kruisfontein,-34.0033,24.7314,81,1619480833,87,63.0,3.0
IS,Husavik,66.0449,-17.3389,0,1619480874,86,32.0,3.44
NA,Warmbad,-28.45,18.7333,55,1619481601,81,55.4,8.01
BR,Jucás,-6.5253,-39.5275,98,1619481337,78,75.47,2.51
BR,Guaraniaçu,-25.1008,-52.8781,0,1619481602,73,53.76,3.91
RU,Razdolinsk,58.4211,94.6658,99,1619481602,94,33.55,2.24
RU,Zyryanka,65.75,150.85,9,1619481198,75,24.76,15.12
IN,Manjeshwar,12.7194,74.8861,20,1619481603,78,78.8,3.44
US,Mountain Home,43.133,-115.6912,90,1619481475,61,48.2,13.8
KE,Malindi,-3.2175,40.1191,68,1619481603,82,80.13,11.41
KZ,Nur-Sultan,51.1801,71.446,40,1619481044,81,46.4,8.95
ES,Puerto del Rosario,28.5004,-13.8627,0,1619481604,68,66.2,4.61
YT,Boueni,-12.9025,45.0761,0,1619481605,94,77.0,3.44
IN,Virpur,23.1833,73.4833,0,1619481606,21,83.53,5.28
PE,Lima,-12.0432,-77.0282,20,1619481588,82,71.01,8.05
FR,Saint-Junien,45.8833,0.9,0,1619481607,66,53.6,8.05
PH,Pandan,14.0453,124.1694,100,1619481596,80,78.44,13.06
US,Kingman,35.1894,-114.053,90,1619481609,58,53.6,13.8
US,Buckeye,33.3703,-112.5838,100,1619481600,20,78.8,19.57
MG,Ambilobe,-13.2,49.05,15,1619481612,94,70.86,3.2
AU,Deniliquin,-35.5333,144.9667,0,1619481612,70,60.01,1.01
AR,Tres Arroyos,-38.3739,-60.2798,0,1619481613,75,55.45,7.38
PE,Otuzco,-7.9,-78.5833,75,1619481613,94,62.6,9.22
ID,Sabang,5.8933,95.3214,86,1619481069,72,83.1,4.74
GL,Qasigiannguit,68.8193,-51.1922,75,1619481614,46,48.2,12.66
ZM,Mwinilunga,-11.7358,24.4293,100,1619481614,94,61.95,2.3
GL,Nuuk,64.1835,-51.7216,90,1619481389,93,35.6,8.05
AU,Mackay,-21.15,149.2,40,1619481614,73,75.0,12.66
LK,Hambantota,6.1241,81.1185,66,1619481008,84,79.14,6.91
RU,Toora-Khem,52.4675,96.11,11,1619481615,64,31.66,1.99
VN,Phan Thiet,10.9333,108.1,96,1619481615,81,80.4,3.71
US,Dumas,35.8656,-101.9732,1,1619481616,6,89.01,25.32
IR,Ābādān,30.3392,48.3043,70,1619481616,57,78.8,4.61
US,Waupun,43.6333,-88.7296,40,1619481616,55,59.0,13.8
GF,Camopi,3.1655,-52.3158,100,1619481617,99,72.88,2.51
CR,Parrita,9.5201,-84.3225,40,1619481617,68,80.6,13.8
BF,Léo,11.1,-2.1,69,1619481441,46,85.6,10.92
RU,Sherlovaya Gora,50.5667,116.25,100,1619481618,68,30.42,24.7
DZ,Sidi Ali,36.0998,0.4206,28,1619481618,72,59.99,6.62
PE,Chincha Alta,-13.4099,-76.1323,40,1619481618,82,66.2,9.22
IN,Kanniyākumāri,8.0833,77.5667,20,1619481619,79,82.17,10.18
AU,Port Hedland,-20.3167,118.5667,1,1619481619,33,71.6,6.91
CZ,Vrbno pod Pradědem,50.1209,17.3832,93,1619481619,68,33.01,2.26
CN,Kumul,42.8,93.45,7,1619481620,16,48.43,7.29
RU,Mukhen,48.1,136.1,70,1619481620,27,56.53,6.22
BR,Boa Vista,2.8197,-60.6733,75,1619481620,83,78.8,5.75
ZA,Saldanha,-33.0117,17.9442,82,1619481010,88,62.6,18.41
UA,Starokostiantyniv,49.7576,27.2034,71,1619481621,76,33.67,5.14
SY,Yabrūd,33.9674,36.6574,0,1619481621,82,55.4,20.71
CN,Zhangjiakou Shi Xuanhua Qu,40.6103,115.0447,1,1619481621,29,50.2,22.7
BR,Caravelas,-17.7125,-39.2481,67,1619481622,78,76.46,7.02
JP,Abashiri,44.0213,144.2697,20,1619481622,60,41.0,3.44
NO,Mehamn,71.0357,27.8492,98,1619481097,64,30.7,11.1
YE,Aden,12.7794,45.0367,100,1619481622,72,82.65,7.83
RU,Tigil',57.8,158.6667,100,1619481623,92,29.55,6.67
